{
"type": "FeatureCollection",
"name": "fire_stations",
"crs": { "type": "name", "properties": { "name": "urn:ogc:def:crs:OGC:1.3:CRS84" } },
"features": [
{ "type": "Feature", "properties": { "DIREKTION": "Nord", "WACH_TYP": "FF", "WACH_NAME": "FF Kaulsdorf", "ORT": "Berlin", "PLZ": "12621", "ADRESSE": "Mädewalder Weg 21", "BEZIRK": "Marzahn-Hellersdorf", "ORTSTEIL": "Kaulsdorf", "QUELLE": "Berliner Feuerwehr", "STAND": "04\/19" }, "geometry": { "type": "Point", "coordinates": [ 13.587982408299984, 52.506858904700003 ] } },
{ "type": "Feature", "properties": { "DIREKTION": "Nord", "WACH_TYP": "FF", "WACH_NAME": "FF Hellersdorf", "ORT": "Berlin", "PLZ": "12619", "ADRESSE": "Hellersdorfer Straße 147", "BEZIRK": "Marzahn-Hellersdorf", "ORTSTEIL": "Hellersdorf", "QUELLE": "Berliner Feuerwehr", "STAND": "04\/19" }, "geometry": { "type": "Point", "coordinates": [ 13.589834950299984, 52.530135463299892 ] } },
{ "type": "Feature", "properties": { "DIREKTION": "Süd", "WACH_TYP": "RW", "WACH_NAME": "RW Köpenick", "ORT": "Berlin", "PLZ": "12559", "ADRESSE": "Salvador-Allende-Straße 2-8", "BEZIRK": "Treptow-Köpenick", "ORTSTEIL": "Köpenick", "QUELLE": "Berliner Feuerwehr", "STAND": "04\/19" }, "geometry": { "type": "Point", "coordinates": [ 13.594035018899982, 52.439746711299989 ] } },
{ "type": "Feature", "properties": { "DIREKTION": "Nord", "WACH_TYP": "RW", "WACH_NAME": "RW Kaulsdorf", "ORT": "Berlin", "PLZ": "12621", "ADRESSE": "Myslowitzer Straße 45", "BEZIRK": "Marzahn-Hellersdorf", "ORTSTEIL": "Kaulsdorf", "QUELLE": "Berliner Feuerwehr", "STAND": "04\/19" }, "geometry": { "type": "Point", "coordinates": [ 13.59214988319988, 52.507415548399891 ] } },
{ "type": "Feature", "properties": { "DIREKTION": "Nord", "WACH_TYP": "FF", "WACH_NAME": "FF Mahlsdorf", "ORT": "Berlin", "PLZ": "12623", "ADRESSE": "Donizettistraße 4", "BEZIRK": "Marzahn-Hellersdorf", "ORTSTEIL": "Mahlsdorf", "QUELLE": "Berliner Feuerwehr", "STAND": "04\/19" }, "geometry": { "type": "Point", "coordinates": [ 13.615515898899984, 52.511597798199972 ] } },
{ "type": "Feature", "properties": { "DIREKTION": "Süd", "WACH_TYP": "FF", "WACH_NAME": "FF Friedrichshagen", "ORT": "Berlin", "PLZ": "12587", "ADRESSE": "Müggelseedamm 178", "BEZIRK": "Treptow-Köpenick", "ORTSTEIL": "Friedrichshagen", "QUELLE": "Berliner Feuerwehr", "STAND": "04\/19" }, "geometry": { "type": "Point", "coordinates": [ 13.626120190299984, 52.446573774899996 ] } },
{ "type": "Feature", "properties": { "DIREKTION": "Süd", "WACH_TYP": "FF", "WACH_NAME": "FF Rauchfangswerder", "ORT": "Berlin", "PLZ": "12527", "ADRESSE": "Schmöckwitzer Damm 60", "BEZIRK": "Treptow-Köpenick", "ORTSTEIL": "Schmöckwitz", "QUELLE": "Berliner Feuerwehr", "STAND": "04\/19" }, "geometry": { "type": "Point", "coordinates": [ 13.645762741499983, 52.347064177299885 ] } },
{ "type": "Feature", "properties": { "DIREKTION": "Süd", "WACH_TYP": "FF", "WACH_NAME": "FF Schmöckwitz", "ORT": "Berlin", "PLZ": "12527", "ADRESSE": "Adlergestell 786", "BEZIRK": "Treptow-Köpenick", "ORTSTEIL": "Schmöckwitz", "QUELLE": "Berliner Feuerwehr", "STAND": "04\/19" }, "geometry": { "type": "Point", "coordinates": [ 13.648228804699983, 52.375292392399892 ] } },
{ "type": "Feature", "properties": { "DIREKTION": "Süd", "WACH_TYP": "FF", "WACH_NAME": "FF Müggelheim", "ORT": "Berlin", "PLZ": "12559", "ADRESSE": "Krampenburger Weg 1", "BEZIRK": "Treptow-Köpenick", "ORTSTEIL": "Müggelheim", "QUELLE": "Berliner Feuerwehr", "STAND": "04\/19" }, "geometry": { "type": "Point", "coordinates": [ 13.664392119899986, 52.410556071999892 ] } },
{ "type": "Feature", "properties": { "DIREKTION": "Süd", "WACH_TYP": "FF", "WACH_NAME": "FF Wilhelmshagen", "ORT": "Berlin", "PLZ": "12589", "ADRESSE": "Frankenbergstraße 23", "BEZIRK": "Treptow-Köpenick", "ORTSTEIL": "Rahnsdorf", "QUELLE": "Berliner Feuerwehr", "STAND": "04\/19" }, "geometry": { "type": "Point", "coordinates": [ 13.716138002599884, 52.436695522199877 ] } },
{ "type": "Feature", "properties": { "DIREKTION": "Süd", "WACH_TYP": "FF", "WACH_NAME": "FF Lichtenrade", "ORT": "Berlin", "PLZ": "12309", "ADRESSE": "Im Domstift 22", "BEZIRK": "Tempelhof-Schöneberg", "ORTSTEIL": "Lichtenrade", "QUELLE": "Berliner Feuerwehr", "STAND": "04\/19" }, "geometry": { "type": "Point", "coordinates": [ 13.412228492499979, 52.392470176 ] } },
{ "type": "Feature", "properties": { "DIREKTION": "Süd", "WACH_TYP": "FF", "WACH_NAME": "FF Bohnsdorf", "ORT": "Berlin", "PLZ": "12526", "ADRESSE": "Waltersdorfer Str. 107", "BEZIRK": "Treptow-Köpenick", "ORTSTEIL": "Bohnsdorf", "QUELLE": "Berliner Feuerwehr", "STAND": "04\/19" }, "geometry": { "type": "Point", "coordinates": [ 13.574077079099983, 52.401500177599893 ] } },
{ "type": "Feature", "properties": { "DIREKTION": "Süd", "WACH_TYP": "RW", "WACH_NAME": "RW Bohnsdorf", "ORT": "Berlin", "PLZ": "12526", "ADRESSE": "Höhensteig 1", "BEZIRK": "Treptow-Köpenick", "ORTSTEIL": "Bohnsdorf", "QUELLE": "Berliner Feuerwehr", "STAND": "04\/19" }, "geometry": { "type": "Point", "coordinates": [ 13.569278683099986, 52.405899674399897 ] } },
{ "type": "Feature", "properties": { "DIREKTION": "Süd", "WACH_TYP": "RW", "WACH_NAME": "RW Marienfelde-Süd", "ORT": "Berlin", "PLZ": "12277", "ADRESSE": "Nunsdorfer Ring 7-9", "BEZIRK": "Tempelhof-Schöneberg", "ORTSTEIL": "Marienfelde", "QUELLE": "Berliner Feuerwehr", "STAND": "04\/19" }, "geometry": { "type": "Point", "coordinates": [ 13.378968774899979, 52.408692844699893 ] } },
{ "type": "Feature", "properties": { "DIREKTION": "Süd", "WACH_TYP": "FF", "WACH_NAME": "FF Rudow", "ORT": "Berlin", "PLZ": "12355", "ADRESSE": "Alt-Rudow 67", "BEZIRK": "Neukölln", "ORTSTEIL": "Rudow", "QUELLE": "Berliner Feuerwehr", "STAND": "04\/19" }, "geometry": { "type": "Point", "coordinates": [ 13.496806282199982, 52.417031939299989 ] } },
{ "type": "Feature", "properties": { "DIREKTION": "Süd", "WACH_TYP": "FF", "WACH_NAME": "FF Grünau", "ORT": "Berlin", "PLZ": "12527", "ADRESSE": "Schlierseestraße 10", "BEZIRK": "Treptow-Köpenick", "ORTSTEIL": "Grünau", "QUELLE": "Berliner Feuerwehr", "STAND": "04\/19" }, "geometry": { "type": "Point", "coordinates": [ 13.578992903199982, 52.422197806299884 ] } },
{ "type": "Feature", "properties": { "DIREKTION": "Süd", "WACH_TYP": "FF", "WACH_NAME": "FF Altglienicke", "ORT": "Berlin", "PLZ": "12524", "ADRESSE": "Semmelweisstraße 87", "BEZIRK": "Treptow-Köpenick", "ORTSTEIL": "Altglienicke", "QUELLE": "Berliner Feuerwehr", "STAND": "04\/19" }, "geometry": { "type": "Point", "coordinates": [ 13.528855108099982, 52.424075030599987 ] } },
{ "type": "Feature", "properties": { "DIREKTION": "Süd", "WACH_TYP": "BF", "WACH_NAME": "FW Marienfelde", "ORT": "Berlin", "PLZ": "12277", "ADRESSE": "Wilhelm-von-Siemens-Straße 15", "BEZIRK": "Tempelhof-Schöneberg", "ORTSTEIL": "Mariendorf", "QUELLE": "Berliner Feuerwehr", "STAND": "04\/19" }, "geometry": { "type": "Point", "coordinates": [ 13.380491078399983, 52.429576744400002 ] } },
{ "type": "Feature", "properties": { "DIREKTION": "Süd", "WACH_TYP": "BF", "WACH_NAME": "FW Köpenick", "ORT": "Berlin", "PLZ": "12557", "ADRESSE": "Grünauer Straße 140", "BEZIRK": "Treptow-Köpenick", "ORTSTEIL": "Köpenick", "QUELLE": "Berliner Feuerwehr", "STAND": "04\/19" }, "geometry": { "type": "Point", "coordinates": [ 13.569130165199985, 52.435338320599982 ] } },
{ "type": "Feature", "properties": { "DIREKTION": "Süd", "WACH_TYP": "BF", "WACH_NAME": "FW Buckow", "ORT": "Berlin", "PLZ": "12351", "ADRESSE": "Johannisthaler Chaussee 222", "BEZIRK": "Neukölln", "ORTSTEIL": "Buckow", "QUELLE": "Berliner Feuerwehr", "STAND": "04\/19" }, "geometry": { "type": "Point", "coordinates": [ 13.46832252079988, 52.434189753399913 ] } },
{ "type": "Feature", "properties": { "DIREKTION": "Süd", "WACH_TYP": "FF", "WACH_NAME": "FF Adlershof", "ORT": "Berlin", "PLZ": "12489", "ADRESSE": "Selchowstraße 3-4", "BEZIRK": "Treptow-Köpenick", "ORTSTEIL": "Adlershof", "QUELLE": "Berliner Feuerwehr", "STAND": "04\/19" }, "geometry": { "type": "Point", "coordinates": [ 13.549680668699983, 52.439215878399885 ] } },
{ "type": "Feature", "properties": { "DIREKTION": "Süd", "WACH_TYP": "RW", "WACH_NAME": "RW Mariendorf", "ORT": "Berlin", "PLZ": "12105", "ADRESSE": "Rathausstraße 70", "BEZIRK": "Tempelhof-Schöneberg", "ORTSTEIL": "Mariendorf", "QUELLE": "Berliner Feuerwehr", "STAND": "04\/19" }, "geometry": { "type": "Point", "coordinates": [ 13.380315844699982, 52.443876959299885 ] } },
{ "type": "Feature", "properties": { "DIREKTION": "Süd", "WACH_TYP": "BF", "WACH_NAME": "FW Treptow", "ORT": "Berlin", "PLZ": "12487", "ADRESSE": "Groß-Berliner-Damm 18", "BEZIRK": "Treptow-Köpenick", "ORTSTEIL": "Johannisthal", "QUELLE": "Berliner Feuerwehr", "STAND": "04\/19" }, "geometry": { "type": "Point", "coordinates": [ 13.510133248399981, 52.450257083299995 ] } },
{ "type": "Feature", "properties": { "DIREKTION": "Süd", "WACH_TYP": "FF", "WACH_NAME": "FF Oberschöneweide", "ORT": "Berlin", "PLZ": "12459", "ADRESSE": "Siemensstraße 22", "BEZIRK": "Treptow-Köpenick", "ORTSTEIL": "Oberschöneweide", "QUELLE": "Berliner Feuerwehr", "STAND": "04\/19" }, "geometry": { "type": "Point", "coordinates": [ 13.512291525199984, 52.464259529699973 ] } },
{ "type": "Feature", "properties": { "DIREKTION": "Süd", "WACH_TYP": "BF", "WACH_NAME": "FW Tempelhof", "ORT": "Berlin", "PLZ": "12103", "ADRESSE": "Borussiastraße 16-17", "BEZIRK": "Tempelhof-Schöneberg", "ORTSTEIL": "Tempelhof", "QUELLE": "Berliner Feuerwehr", "STAND": "04\/19" }, "geometry": { "type": "Point", "coordinates": [ 13.383853859999984, 52.466969305299891 ] } },
{ "type": "Feature", "properties": { "DIREKTION": "Süd", "WACH_TYP": "BF", "WACH_NAME": "FW Neukölln", "ORT": "Berlin", "PLZ": "12051", "ADRESSE": "Kirchhofstraße 20", "BEZIRK": "Neukölln", "ORTSTEIL": "Neukölln", "QUELLE": "Berliner Feuerwehr", "STAND": "04\/19" }, "geometry": { "type": "Point", "coordinates": [ 13.438429389299982, 52.468990075499988 ] } },
{ "type": "Feature", "properties": { "DIREKTION": "Nord", "WACH_TYP": "BF", "WACH_NAME": "FW Karlshorst", "ORT": "Berlin", "PLZ": "10318", "ADRESSE": "Dönhoffstraße 31", "BEZIRK": "Lichtenberg", "ORTSTEIL": "Karlshorst", "QUELLE": "Berliner Feuerwehr", "STAND": "04\/19" }, "geometry": { "type": "Point", "coordinates": [ 13.520721960499984, 52.484008320899989 ] } },
{ "type": "Feature", "properties": { "DIREKTION": "Süd", "WACH_TYP": "BF", "WACH_NAME": "FW Schöneberg", "ORT": "Berlin", "PLZ": "10827", "ADRESSE": "Feurigstraße 58", "BEZIRK": "Tempelhof-Schöneberg", "ORTSTEIL": "Schöneberg", "QUELLE": "Berliner Feuerwehr", "STAND": "04\/19" }, "geometry": { "type": "Point", "coordinates": [ 13.356751140699982, 52.484609825799964 ] } },
{ "type": "Feature", "properties": { "DIREKTION": "Süd", "WACH_TYP": "BF", "WACH_NAME": "FW Urban", "ORT": "Berlin", "PLZ": "10961", "ADRESSE": "Wilmsstraße 19", "BEZIRK": "Friedrichshain-Kreuzberg", "ORTSTEIL": "Kreuzberg", "QUELLE": "Berliner Feuerwehr", "STAND": "04\/19" }, "geometry": { "type": "Point", "coordinates": [ 13.403230846799982, 52.495519450099884 ] } },
{ "type": "Feature", "properties": { "DIREKTION": "Süd", "WACH_TYP": "BF", "WACH_NAME": "FW Kreuzberg", "ORT": "Berlin", "PLZ": "10999", "ADRESSE": "Wiener Straße 64", "BEZIRK": "Friedrichshain-Kreuzberg", "ORTSTEIL": "Kreuzberg", "QUELLE": "Berliner Feuerwehr", "STAND": "04\/19" }, "geometry": { "type": "Point", "coordinates": [ 13.429177917999985, 52.498632726899885 ] } },
{ "type": "Feature", "properties": { "DIREKTION": "Nord", "WACH_TYP": "RW", "WACH_NAME": "RW Rummelsburg", "ORT": "Berlin", "PLZ": "10317", "ADRESSE": "Nöldnerstraße 36", "BEZIRK": "Lichtenberg", "ORTSTEIL": "Rummelsburg", "QUELLE": "Berliner Feuerwehr", "STAND": "04\/19" }, "geometry": { "type": "Point", "coordinates": [ 13.483902331699982, 52.501942046699973 ] } },
{ "type": "Feature", "properties": { "DIREKTION": "West", "WACH_TYP": "RW", "WACH_NAME": "RW Tiergarten-Süd", "ORT": "Berlin", "PLZ": "10785", "ADRESSE": "Lützowstraße 24-26", "BEZIRK": "Mitte", "ORTSTEIL": "Tiergarten", "QUELLE": "Berliner Feuerwehr", "STAND": "04\/19" }, "geometry": { "type": "Point", "coordinates": [ 13.364902800199884, 52.503531503699982 ] } },
{ "type": "Feature", "properties": { "DIREKTION": "Nord", "WACH_TYP": "FF", "WACH_NAME": "FF Biesdorf", "ORT": "Berlin", "PLZ": "12683", "ADRESSE": "Alt-Biesdorf 58", "BEZIRK": "Marzahn-Hellersdorf", "ORTSTEIL": "Biesdorf", "QUELLE": "Berliner Feuerwehr", "STAND": "04\/19" }, "geometry": { "type": "Point", "coordinates": [ 13.556292227799984, 52.509251922499878 ] } },
{ "type": "Feature", "properties": { "DIREKTION": "Süd", "WACH_TYP": "BF", "WACH_NAME": "FW Friedrichshain", "ORT": "Berlin", "PLZ": "10243", "ADRESSE": "Rüdersdorfer Straße 57", "BEZIRK": "Friedrichshain-Kreuzberg", "ORTSTEIL": "Friedrichshain", "QUELLE": "Berliner Feuerwehr", "STAND": "04\/19" }, "geometry": { "type": "Point", "coordinates": [ 13.44462213409988, 52.511636738399993 ] } },
{ "type": "Feature", "properties": { "DIREKTION": "West", "WACH_TYP": "BF", "WACH_NAME": "FW Mitte", "ORT": "Berlin", "PLZ": "10179", "ADRESSE": "Voltairestraße 2", "BEZIRK": "Mitte", "ORTSTEIL": "Mitte", "QUELLE": "Berliner Feuerwehr", "STAND": "04\/19" }, "geometry": { "type": "Point", "coordinates": [ 13.414662624799982, 52.516911395199884 ] } },
{ "type": "Feature", "properties": { "DIREKTION": "Nord", "WACH_TYP": "RW", "WACH_NAME": "RW Unfallkrankenhaus Berlin", "ORT": "Berlin", "PLZ": "12683", "ADRESSE": "Warener Straße 7", "BEZIRK": "Marzahn-Hellersdorf", "ORTSTEIL": "Biesdorf", "QUELLE": "Berliner Feuerwehr", "STAND": "04\/19" }, "geometry": { "type": "Point", "coordinates": [ 13.566993501099983, 52.519349618999982 ] } },
{ "type": "Feature", "properties": { "DIREKTION": "Nord", "WACH_TYP": "BF", "WACH_NAME": "FW Lichtenberg", "ORT": "Berlin", "PLZ": "10365", "ADRESSE": "Josef-Orlopp-Straße 69", "BEZIRK": "Lichtenberg", "ORTSTEIL": "Lichtenberg", "QUELLE": "Berliner Feuerwehr", "STAND": "04\/19" }, "geometry": { "type": "Point", "coordinates": [ 13.492853154299983, 52.523180426700002 ] } },
{ "type": "Feature", "properties": { "DIREKTION": "West", "WACH_TYP": "BF", "WACH_NAME": "FW Tiergarten", "ORT": "Berlin", "PLZ": "10557", "ADRESSE": "Elisabeth-Abegg-Straße 2", "BEZIRK": "Mitte", "ORTSTEIL": "Moabit", "QUELLE": "Berliner Feuerwehr", "STAND": "04\/19" }, "geometry": { "type": "Point", "coordinates": [ 13.366211218399986, 52.521847175599987 ] } },
{ "type": "Feature", "properties": { "DIREKTION": "Nord", "WACH_TYP": "BF", "WACH_NAME": "FW Hellersdorf", "ORT": "Berlin", "PLZ": "12621", "ADRESSE": "Kummerower Ring 80", "BEZIRK": "Marzahn-Hellersdorf", "ORTSTEIL": "Hellersdorf", "QUELLE": "Berliner Feuerwehr", "STAND": "04\/19" }, "geometry": { "type": "Point", "coordinates": [ 13.582423193799983, 52.525584882299988 ] } },
{ "type": "Feature", "properties": { "DIREKTION": "Süd", "WACH_TYP": "RW", "WACH_NAME": "RW Am Friedrichshain", "ORT": "Berlin", "PLZ": "10249", "ADRESSE": "Landsberger Allee 49", "BEZIRK": "Friedrichshain-Kreuzberg", "ORTSTEIL": "Friedrichshain", "QUELLE": "Berliner Feuerwehr", "STAND": "04\/19" }, "geometry": { "type": "Point", "coordinates": [ 13.440953094699879, 52.524572521299987 ] } },
{ "type": "Feature", "properties": { "DIREKTION": "Nord", "WACH_TYP": "RW", "WACH_NAME": "RW Herzberge", "ORT": "Berlin", "PLZ": "10365", "ADRESSE": "Herzbergstraße 79", "BEZIRK": "Lichtenberg", "ORTSTEIL": "Lichtenberg", "QUELLE": "Berliner Feuerwehr", "STAND": "04\/19" }, "geometry": { "type": "Point", "coordinates": [ 13.506062845399986, 52.526398274999892 ] } },
{ "type": "Feature", "properties": { "DIREKTION": "West", "WACH_TYP": "FF", "WACH_NAME": "FF Mitte", "ORT": "Berlin", "PLZ": "10115", "ADRESSE": "Linienstraße 128-129", "BEZIRK": "Mitte", "ORTSTEIL": "Mitte", "QUELLE": "Berliner Feuerwehr", "STAND": "04\/19" }, "geometry": { "type": "Point", "coordinates": [ 13.389251129199984, 52.526581191799878 ] } },
{ "type": "Feature", "properties": { "DIREKTION": "Nord", "WACH_TYP": "BF", "WACH_NAME": "Technischer Dienst II", "ORT": "Berlin", "PLZ": "12681", "ADRESSE": "Märkische Allee 181", "BEZIRK": "Marzahn-Hellersdorf", "ORTSTEIL": "Marzahn", "QUELLE": "Berliner Feuerwehr", "STAND": "04\/19" }, "geometry": { "type": "Point", "coordinates": [ 13.536687881199983, 52.534986839600002 ] } },
{ "type": "Feature", "properties": { "DIREKTION": "Nord", "WACH_TYP": "BF", "WACH_NAME": "FW Marzahn", "ORT": "Berlin", "PLZ": "12681", "ADRESSE": "Märkische Allee 181", "BEZIRK": "Marzahn-Hellersdorf", "ORTSTEIL": "Marzahn", "QUELLE": "Berliner Feuerwehr", "STAND": "04\/19" }, "geometry": { "type": "Point", "coordinates": [ 13.536687881199983, 52.534986839600002 ] } },
{ "type": "Feature", "properties": { "DIREKTION": "West", "WACH_TYP": "RW", "WACH_NAME": "RW Bundeswehrkrankenhaus", "ORT": "Berlin", "PLZ": "10115", "ADRESSE": "Scharnhorststraße 13", "BEZIRK": "Mitte", "ORTSTEIL": "Mitte", "QUELLE": "Berliner Feuerwehr", "STAND": "04\/19" }, "geometry": { "type": "Point", "coordinates": [ 13.37006945629998, 52.534782718799995 ] } },
{ "type": "Feature", "properties": { "DIREKTION": "Nord", "WACH_TYP": "BF", "WACH_NAME": "FW Prenzlauer Berg", "ORT": "Berlin", "PLZ": "10435", "ADRESSE": "Oderberger Straße 24", "BEZIRK": "Pankow", "ORTSTEIL": "Prenzlauer Berg", "QUELLE": "Berliner Feuerwehr", "STAND": "04\/19" }, "geometry": { "type": "Point", "coordinates": [ 13.406666706299882, 52.539908565499886 ] } },
{ "type": "Feature", "properties": { "DIREKTION": "Nord", "WACH_TYP": "FF", "WACH_NAME": "FF Marzahn", "ORT": "Berlin", "PLZ": "12685", "ADRESSE": "Blenheimstraße 67", "BEZIRK": "Marzahn-Hellersdorf", "ORTSTEIL": "Marzahn", "QUELLE": "Berliner Feuerwehr", "STAND": "04\/19" }, "geometry": { "type": "Point", "coordinates": [ 13.562300803399884, 52.542042558599988 ] } },
{ "type": "Feature", "properties": { "DIREKTION": "Nord", "WACH_TYP": "FF", "WACH_NAME": "FF Hohenschönhausen", "ORT": "Berlin", "PLZ": "13055", "ADRESSE": "Ferdinand-Schultze-Straße 128", "BEZIRK": "Lichtenberg", "ORTSTEIL": "Alt-Hohenschönhausen", "QUELLE": "Berliner Feuerwehr", "STAND": "04\/19" }, "geometry": { "type": "Point", "coordinates": [ 13.50814033259998, 52.545052692699883 ] } },
{ "type": "Feature", "properties": { "DIREKTION": "West", "WACH_TYP": "BF", "WACH_NAME": "FW Wedding", "ORT": "Berlin", "PLZ": "13347", "ADRESSE": "Reinickendorfer Straße 15 a", "BEZIRK": "Mitte", "ORTSTEIL": "Gesundbrunnen", "QUELLE": "Berliner Feuerwehr", "STAND": "04\/19" }, "geometry": { "type": "Point", "coordinates": [ 13.37000073499998, 52.543282003399995 ] } },
{ "type": "Feature", "properties": { "DIREKTION": "Nord", "WACH_TYP": "FF", "WACH_NAME": "FF Prenzlauer Berg", "ORT": "Berlin", "PLZ": "10409", "ADRESSE": "Schieritzstraße 24", "BEZIRK": "Pankow", "ORTSTEIL": "Prenzlauer Berg", "QUELLE": "Berliner Feuerwehr", "STAND": "04\/19" }, "geometry": { "type": "Point", "coordinates": [ 13.440602200699983, 52.545213038099995 ] } },
{ "type": "Feature", "properties": { "DIREKTION": "West", "WACH_TYP": "BF", "WACH_NAME": "FW Schillerpark", "ORT": "Berlin", "PLZ": "13349", "ADRESSE": "Edinburgerstraße 7", "BEZIRK": "Mitte", "ORTSTEIL": "Wedding", "QUELLE": "Berliner Feuerwehr", "STAND": "04\/19" }, "geometry": { "type": "Point", "coordinates": [ 13.351954397399984, 52.553723377199994 ] } },
{ "type": "Feature", "properties": { "DIREKTION": "Nord", "WACH_TYP": "BF", "WACH_NAME": "FW Weißensee", "ORT": "Berlin", "PLZ": "13086", "ADRESSE": "Parkstraße 38-39", "BEZIRK": "Pankow", "ORTSTEIL": "Weißensee", "QUELLE": "Berliner Feuerwehr", "STAND": "04\/19" }, "geometry": { "type": "Point", "coordinates": [ 13.459751698199982, 52.556442288199996 ] } },
{ "type": "Feature", "properties": { "DIREKTION": "Nord", "WACH_TYP": "FF", "WACH_NAME": "FF Falkenberg", "ORT": "Berlin", "PLZ": "13057", "ADRESSE": "Hausvaterweg 16", "BEZIRK": "Lichtenberg", "ORTSTEIL": "Falkenberg", "QUELLE": "Berliner Feuerwehr", "STAND": "04\/19" }, "geometry": { "type": "Point", "coordinates": [ 13.546135941199884, 52.569622917699995 ] } },
{ "type": "Feature", "properties": { "DIREKTION": "Nord", "WACH_TYP": "FF", "WACH_NAME": "FF Heinersdorf", "ORT": "Berlin", "PLZ": "13089", "ADRESSE": "Romain-Rolland-Straße 105-107", "BEZIRK": "Pankow", "ORTSTEIL": "Heinersdorf", "QUELLE": "Berliner Feuerwehr", "STAND": "04\/19" }, "geometry": { "type": "Point", "coordinates": [ 13.437298026099983, 52.571450947499891 ] } },
{ "type": "Feature", "properties": { "DIREKTION": "Nord", "WACH_TYP": "RW", "WACH_NAME": "RW Pankow Mitte", "ORT": "Berlin", "PLZ": "13187", "ADRESSE": "Breite Straße 46-47", "BEZIRK": "Pankow", "ORTSTEIL": "Pankow", "QUELLE": "Berliner Feuerwehr", "STAND": "04\/19" }, "geometry": { "type": "Point", "coordinates": [ 13.414056424799984, 52.571391769299979 ] } },
{ "type": "Feature", "properties": { "DIREKTION": "Nord", "WACH_TYP": "FF", "WACH_NAME": "FF Pankow", "ORT": "Berlin", "PLZ": "13187", "ADRESSE": "Stiftsweg 1 a", "BEZIRK": "Pankow", "ORTSTEIL": "Pankow", "QUELLE": "Berliner Feuerwehr", "STAND": "04\/19" }, "geometry": { "type": "Point", "coordinates": [ 13.415498271599983, 52.573058635299994 ] } },
{ "type": "Feature", "properties": { "DIREKTION": "Nord", "WACH_TYP": "FF", "WACH_NAME": "FF Wartenberg-Mahlow", "ORT": "Berlin", "PLZ": "13059", "ADRESSE": "Dorfstraße 4", "BEZIRK": "Lichtenberg", "ORTSTEIL": "Wartenberg", "QUELLE": "Berliner Feuerwehr", "STAND": "04\/19" }, "geometry": { "type": "Point", "coordinates": [ 13.515733585799984, 52.574735944399897 ] } },
{ "type": "Feature", "properties": { "DIREKTION": "Nord", "WACH_TYP": "BF", "WACH_NAME": "FW Pankow", "ORT": "Berlin", "PLZ": "13127", "ADRESSE": "Pasewalker Straße 120", "BEZIRK": "Pankow", "ORTSTEIL": "Pankow", "QUELLE": "Berliner Feuerwehr", "STAND": "04\/19" }, "geometry": { "type": "Point", "coordinates": [ 13.429006437899982, 52.58185268419998 ] } },
{ "type": "Feature", "properties": { "DIREKTION": "Nord", "WACH_TYP": "FF", "WACH_NAME": "FF Niederschönhausen", "ORT": "Berlin", "PLZ": "13156", "ADRESSE": "Blankenburger Straße 19", "BEZIRK": "Pankow", "ORTSTEIL": "Niederschönhausen", "QUELLE": "Berliner Feuerwehr", "STAND": "04\/19" }, "geometry": { "type": "Point", "coordinates": [ 13.407216316199982, 52.581911403799985 ] } },
{ "type": "Feature", "properties": { "DIREKTION": "Nord", "WACH_TYP": "FF", "WACH_NAME": "FF Wilhelmsruh", "ORT": "Berlin", "PLZ": "13158", "ADRESSE": "Edelweißstraße 35", "BEZIRK": "Pankow", "ORTSTEIL": "Wilhelmsruh", "QUELLE": "Berliner Feuerwehr", "STAND": "04\/19" }, "geometry": { "type": "Point", "coordinates": [ 13.370010519199882, 52.585817679100003 ] } },
{ "type": "Feature", "properties": { "DIREKTION": "Nord", "WACH_TYP": "FF", "WACH_NAME": "FF Blankenburg", "ORT": "Berlin", "PLZ": "13129", "ADRESSE": "Alt-Blankenburg 9", "BEZIRK": "Pankow", "ORTSTEIL": "Blankenburg", "QUELLE": "Berliner Feuerwehr", "STAND": "04\/19" }, "geometry": { "type": "Point", "coordinates": [ 13.451975178899984, 52.592951913799986 ] } },
{ "type": "Feature", "properties": { "DIREKTION": "Nord", "WACH_TYP": "FF", "WACH_NAME": "FF Buchholz", "ORT": "Berlin", "PLZ": "13127", "ADRESSE": "Gravensteinstraße 10", "BEZIRK": "Pankow", "ORTSTEIL": "Französisch Buchholz", "QUELLE": "Berliner Feuerwehr", "STAND": "04\/19" }, "geometry": { "type": "Point", "coordinates": [ 13.435167765299882, 52.60713441599998 ] } },
{ "type": "Feature", "properties": { "DIREKTION": "Nord", "WACH_TYP": "FF", "WACH_NAME": "FF Karow", "ORT": "Berlin", "PLZ": "13125", "ADRESSE": "Alt-Karow 10\/11", "BEZIRK": "Pankow", "ORTSTEIL": "Karow", "QUELLE": "Berliner Feuerwehr", "STAND": "04\/19" }, "geometry": { "type": "Point", "coordinates": [ 13.483014119599982, 52.6109879881 ] } },
{ "type": "Feature", "properties": { "DIREKTION": "Nord", "WACH_TYP": "FF", "WACH_NAME": "FF Blankenfelde", "ORT": "Berlin", "PLZ": "13159", "ADRESSE": "Hauptstraße 14", "BEZIRK": "Pankow", "ORTSTEIL": "Blankenfelde", "QUELLE": "Berliner Feuerwehr", "STAND": "04\/19" }, "geometry": { "type": "Point", "coordinates": [ 13.387655593799982, 52.61773486069989 ] } },
{ "type": "Feature", "properties": { "DIREKTION": "Nord", "WACH_TYP": "RW", "WACH_NAME": "RW Buch", "ORT": "Berlin", "PLZ": "13125", "ADRESSE": "Schwanebecker Chaussee 50", "BEZIRK": "Pankow", "ORTSTEIL": "Buch", "QUELLE": "Berliner Feuerwehr", "STAND": "04\/19" }, "geometry": { "type": "Point", "coordinates": [ 13.511226418599984, 52.631387395599987 ] } },
{ "type": "Feature", "properties": { "DIREKTION": "Nord", "WACH_TYP": "FF", "WACH_NAME": "FF Buch", "ORT": "Berlin", "PLZ": "13125", "ADRESSE": "Pölnitzweg 3", "BEZIRK": "Pankow", "ORTSTEIL": "Buch", "QUELLE": "Berliner Feuerwehr", "STAND": "04\/19" }, "geometry": { "type": "Point", "coordinates": [ 13.502170297599884, 52.63749080129989 ] } },
{ "type": "Feature", "properties": { "DIREKTION": "West", "WACH_TYP": "FF", "WACH_NAME": "FF Kladow", "ORT": "Berlin", "PLZ": "14089", "ADRESSE": "Kladower Damm 367", "BEZIRK": "Spandau", "ORTSTEIL": "Kladow", "QUELLE": "Berliner Feuerwehr", "STAND": "04\/19" }, "geometry": { "type": "Point", "coordinates": [ 13.145221802799977, 52.454714927499992 ] } },
{ "type": "Feature", "properties": { "DIREKTION": "West", "WACH_TYP": "FF", "WACH_NAME": "FF Staaken", "ORT": "Berlin", "PLZ": "13591", "ADRESSE": "Hackbuschstraße 65", "BEZIRK": "Spandau", "ORTSTEIL": "Staaken", "QUELLE": "Berliner Feuerwehr", "STAND": "04\/19" }, "geometry": { "type": "Point", "coordinates": [ 13.150563436599979, 52.543460099799987 ] } },
{ "type": "Feature", "properties": { "DIREKTION": "West", "WACH_TYP": "RW", "WACH_NAME": "RW Falkenhagener Feld", "ORT": "Berlin", "PLZ": "13589", "ADRESSE": "Stadtrandstraße 555", "BEZIRK": "Spandau", "ORTSTEIL": "Falkenhagener Feld", "QUELLE": "Berliner Feuerwehr", "STAND": "04\/19" }, "geometry": { "type": "Point", "coordinates": [ 13.15694219879988, 52.562999031799883 ] } },
{ "type": "Feature", "properties": { "DIREKTION": "West", "WACH_TYP": "FF", "WACH_NAME": "FF Gatow", "ORT": "Berlin", "PLZ": "14089", "ADRESSE": "Gatower Straße 333", "BEZIRK": "Spandau", "ORTSTEIL": "Gatow", "QUELLE": "Berliner Feuerwehr", "STAND": "04\/19" }, "geometry": { "type": "Point", "coordinates": [ 13.180659209299979, 52.489701627899876 ] } },
{ "type": "Feature", "properties": { "DIREKTION": "West", "WACH_TYP": "BF", "WACH_NAME": "FW Wannsee", "ORT": "Berlin", "PLZ": "14109", "ADRESSE": "Kronprinzessinnenweg 20", "BEZIRK": "Steglitz-Zehlendorf", "ORTSTEIL": "Wannsee", "QUELLE": "Berliner Feuerwehr", "STAND": "04\/19" }, "geometry": { "type": "Point", "coordinates": [ 13.184644328399877, 52.429295245799885 ] } },
{ "type": "Feature", "properties": { "DIREKTION": "West", "WACH_TYP": "BF", "WACH_NAME": "FW Spandau-Süd", "ORT": "Berlin", "PLZ": "13595", "ADRESSE": "Betckestraße 13", "BEZIRK": "Spandau", "ORTSTEIL": "Wilhelmstadt", "QUELLE": "Berliner Feuerwehr", "STAND": "04\/19" }, "geometry": { "type": "Point", "coordinates": [ 13.204570299699981, 52.520973889399883 ] } },
{ "type": "Feature", "properties": { "DIREKTION": "West", "WACH_TYP": "BF", "WACH_NAME": "FW Spandau-Nord", "ORT": "Berlin", "PLZ": "13585", "ADRESSE": "Triftstraße 8-9", "BEZIRK": "Spandau", "ORTSTEIL": "Hakenfelde", "QUELLE": "Berliner Feuerwehr", "STAND": "04\/19" }, "geometry": { "type": "Point", "coordinates": [ 13.210392696399978, 52.54480266329989 ] } },
{ "type": "Feature", "properties": { "DIREKTION": "Nord", "WACH_TYP": "FF", "WACH_NAME": "FF Heiligensee", "ORT": "Berlin", "PLZ": "13503", "ADRESSE": "Alt-Heiligensee 68", "BEZIRK": "Reinickendorf", "ORTSTEIL": "Heiligensee", "QUELLE": "Berliner Feuerwehr", "STAND": "04\/19" }, "geometry": { "type": "Point", "coordinates": [ 13.211288128599982, 52.606689659200008 ] } },
{ "type": "Feature", "properties": { "DIREKTION": "Nord", "WACH_TYP": "FF", "WACH_NAME": "FF Tegelort", "ORT": "Berlin", "PLZ": "13505", "ADRESSE": "Friederikestraße 19", "BEZIRK": "Reinickendorf", "ORTSTEIL": "Konradshöhe", "QUELLE": "Berliner Feuerwehr", "STAND": "04\/19" }, "geometry": { "type": "Point", "coordinates": [ 13.228906116299878, 52.570794282699993 ] } },
{ "type": "Feature", "properties": { "DIREKTION": "West", "WACH_TYP": "RW", "WACH_NAME": "RW Siemensstadt", "ORT": "Berlin", "PLZ": "13629", "ADRESSE": "Paulsternstraße 34", "BEZIRK": "Spandau", "ORTSTEIL": "Siemensstadt", "QUELLE": "Berliner Feuerwehr", "STAND": "04\/19" }, "geometry": { "type": "Point", "coordinates": [ 13.247929254599983, 52.543963578699994 ] } },
{ "type": "Feature", "properties": { "DIREKTION": "West", "WACH_TYP": "BF", "WACH_NAME": "FW Zehlendorf", "ORT": "Berlin", "PLZ": "14169", "ADRESSE": "Charlottenburger Straße 10-12", "BEZIRK": "Steglitz-Zehlendorf", "ORTSTEIL": "Zehlendorf", "QUELLE": "Berliner Feuerwehr", "STAND": "04\/19" }, "geometry": { "type": "Point", "coordinates": [ 13.265340800799981, 52.437165908499892 ] } },
{ "type": "Feature", "properties": { "DIREKTION": "West", "WACH_TYP": "RW", "WACH_NAME": "RW Westend", "ORT": "Berlin", "PLZ": "14050", "ADRESSE": "Spandauer Damm 100", "BEZIRK": "Charlottenburg-Wilmersdorf", "ORTSTEIL": "Westend", "QUELLE": "Berliner Feuerwehr", "STAND": "04\/19" }, "geometry": { "type": "Point", "coordinates": [ 13.282142819199983, 52.518723342199891 ] } },
{ "type": "Feature", "properties": { "DIREKTION": "West", "WACH_TYP": "BF", "WACH_NAME": "Fernmeldeeinsatzdienst", "ORT": "Berlin", "PLZ": "13627", "ADRESSE": "Nikolaus-Groß-Weg 2", "BEZIRK": "Charlottenburg-Wilmersdorf", "ORTSTEIL": "Charlottenburg-Nord", "QUELLE": "Berliner Feuerwehr", "STAND": "04\/19" }, "geometry": { "type": "Point", "coordinates": [ 13.282387649599983, 52.532251523699884 ] } },
{ "type": "Feature", "properties": { "DIREKTION": "West", "WACH_TYP": "BF", "WACH_NAME": "FW Charlottenburg-Nord", "ORT": "Berlin", "PLZ": "13627", "ADRESSE": "Nikolaus-Groß-Weg 2", "BEZIRK": "Charlottenburg-Wilmersdorf", "ORTSTEIL": "Charlottenburg-Nord", "QUELLE": "Berliner Feuerwehr", "STAND": "04\/19" }, "geometry": { "type": "Point", "coordinates": [ 13.282387649599983, 52.532251523699884 ] } },
{ "type": "Feature", "properties": { "DIREKTION": "West", "WACH_TYP": "BF", "WACH_NAME": "Technischer Dienst I", "ORT": "Berlin", "PLZ": "13627", "ADRESSE": "Nikolaus-Groß-Weg 2", "BEZIRK": "Charlottenburg-Wilmersdorf", "ORTSTEIL": "Charlottenburg-Nord", "QUELLE": "Berliner Feuerwehr", "STAND": "04\/19" }, "geometry": { "type": "Point", "coordinates": [ 13.282387649599983, 52.532251523699884 ] } },
{ "type": "Feature", "properties": { "DIREKTION": "Nord", "WACH_TYP": "BF", "WACH_NAME": "FW Tegel", "ORT": "Berlin", "PLZ": "13507", "ADRESSE": "Berliner Straße 16", "BEZIRK": "Reinickendorf", "ORTSTEIL": "Tegel", "QUELLE": "Berliner Feuerwehr", "STAND": "04\/19" }, "geometry": { "type": "Point", "coordinates": [ 13.286169862499985, 52.586592201299993 ] } },
{ "type": "Feature", "properties": { "DIREKTION": "West", "WACH_TYP": "RW", "WACH_NAME": "RW Schmargendorf", "ORT": "Berlin", "PLZ": "14193", "ADRESSE": "Caspar-Theyß-Straße 32", "BEZIRK": "Charlottenburg-Wilmersdorf", "ORTSTEIL": "Schmargendorf", "QUELLE": "Berliner Feuerwehr", "STAND": "04\/19" }, "geometry": { "type": "Point", "coordinates": [ 13.293422074499981, 52.491566694699884 ] } },
{ "type": "Feature", "properties": { "DIREKTION": "West", "WACH_TYP": "BF", "WACH_NAME": "FW Suarez", "ORT": "Berlin", "PLZ": "14057", "ADRESSE": "Suarezstraße 9", "BEZIRK": "Charlottenburg-Wilmersdorf", "ORTSTEIL": "Charlottenburg", "QUELLE": "Berliner Feuerwehr", "STAND": "04\/19" }, "geometry": { "type": "Point", "coordinates": [ 13.29605876749998, 52.509058444300003 ] } },
{ "type": "Feature", "properties": { "DIREKTION": "Nord", "WACH_TYP": "FF", "WACH_NAME": "FF Frohnau", "ORT": "Berlin", "PLZ": "13465", "ADRESSE": "Remstaler Straße 9", "BEZIRK": "Reinickendorf", "ORTSTEIL": "Frohnau", "QUELLE": "Berliner Feuerwehr", "STAND": "04\/19" }, "geometry": { "type": "Point", "coordinates": [ 13.301214008099983, 52.636940630399891 ] } },
{ "type": "Feature", "properties": { "DIREKTION": "West", "WACH_TYP": "RW", "WACH_NAME": "RW Lietzow", "ORT": "Berlin", "PLZ": "10587", "ADRESSE": "Alt-Lietzow 33", "BEZIRK": "Charlottenburg-Wilmersdorf", "ORTSTEIL": "Charlottenburg", "QUELLE": "Berliner Feuerwehr", "STAND": "04\/19" }, "geometry": { "type": "Point", "coordinates": [ 13.311589426099879, 52.518601434199986 ] } },
{ "type": "Feature", "properties": { "DIREKTION": "Nord", "WACH_TYP": "RW", "WACH_NAME": "RW Borsigwalde", "ORT": "Berlin", "PLZ": "13509", "ADRESSE": "Am Nordgraben 2", "BEZIRK": "Reinickendorf", "ORTSTEIL": "Borsigwalde", "QUELLE": "Berliner Feuerwehr", "STAND": "04\/19" }, "geometry": { "type": "Point", "coordinates": [ 13.309069066699882, 52.589816355 ] } },
{ "type": "Feature", "properties": { "DIREKTION": "West", "WACH_TYP": "BF", "WACH_NAME": "FW Lichterfelde", "ORT": "Berlin", "PLZ": "12207", "ADRESSE": "Goethestraße 7", "BEZIRK": "Steglitz-Zehlendorf", "ORTSTEIL": "Lichterfelde", "QUELLE": "Berliner Feuerwehr", "STAND": "04\/19" }, "geometry": { "type": "Point", "coordinates": [ 13.315499920499981, 52.429561090199989 ] } },
{ "type": "Feature", "properties": { "DIREKTION": "Nord", "WACH_TYP": "BF", "WACH_NAME": "FW Hermsdorf", "ORT": "Berlin", "PLZ": "13467", "ADRESSE": "Heinsestraße 24", "BEZIRK": "Reinickendorf", "ORTSTEIL": "Hermsdorf", "QUELLE": "Berliner Feuerwehr", "STAND": "04\/19" }, "geometry": { "type": "Point", "coordinates": [ 13.308770568799979, 52.615378429499899 ] } },
{ "type": "Feature", "properties": { "DIREKTION": "West", "WACH_TYP": "RW", "WACH_NAME": "RTH Christoph 31", "ORT": "Berlin", "PLZ": "12203", "ADRESSE": "Klingsorstraße 107", "BEZIRK": "Steglitz-Zehlendorf", "ORTSTEIL": "Lichterfelde", "QUELLE": "Berliner Feuerwehr", "STAND": "04\/19" }, "geometry": { "type": "Point", "coordinates": [ 13.320912020499982, 52.44376257119989 ] } },
{ "type": "Feature", "properties": { "DIREKTION": "West", "WACH_TYP": "BF", "WACH_NAME": "FW Wilmersdorf", "ORT": "Berlin", "PLZ": "10717", "ADRESSE": "Gasteiner Straße 19-20", "BEZIRK": "Charlottenburg-Wilmersdorf", "ORTSTEIL": "Wilmersdorf", "QUELLE": "Berliner Feuerwehr", "STAND": "04\/19" }, "geometry": { "type": "Point", "coordinates": [ 13.320450067799982, 52.487505903099994 ] } },
{ "type": "Feature", "properties": { "DIREKTION": "West", "WACH_TYP": "RW", "WACH_NAME": "RW Friedenau", "ORT": "Berlin", "PLZ": "12161", "ADRESSE": "Görresstraße 11", "BEZIRK": "Tempelhof-Schöneberg", "ORTSTEIL": "Friedenau", "QUELLE": "Berliner Feuerwehr", "STAND": "04\/19" }, "geometry": { "type": "Point", "coordinates": [ 13.32665884799988, 52.473956440799995 ] } },
{ "type": "Feature", "properties": { "DIREKTION": "West", "WACH_TYP": "BF", "WACH_NAME": "FW Steglitz", "ORT": "Berlin", "PLZ": "12169", "ADRESSE": "Südendstraße 18 a", "BEZIRK": "Steglitz-Zehlendorf", "ORTSTEIL": "Steglitz", "QUELLE": "Berliner Feuerwehr", "STAND": "04\/19" }, "geometry": { "type": "Point", "coordinates": [ 13.330355719799982, 52.455966313799905 ] } },
{ "type": "Feature", "properties": { "DIREKTION": "West", "WACH_TYP": "BF", "WACH_NAME": "FW Ranke", "ORT": "Berlin", "PLZ": "10789", "ADRESSE": "Rankestraße 10", "BEZIRK": "Charlottenburg-Wilmersdorf", "ORTSTEIL": "Charlottenburg", "QUELLE": "Berliner Feuerwehr", "STAND": "04\/19" }, "geometry": { "type": "Point", "coordinates": [ 13.332628271599983, 52.501745572799891 ] } },
{ "type": "Feature", "properties": { "DIREKTION": "West", "WACH_TYP": "BF", "WACH_NAME": "FW Moabit", "ORT": "Berlin", "PLZ": "10555", "ADRESSE": "Jagowstraße 31-34", "BEZIRK": "Mitte", "ORTSTEIL": "Moabit", "QUELLE": "Berliner Feuerwehr", "STAND": "04\/19" }, "geometry": { "type": "Point", "coordinates": [ 13.333693688599981, 52.522670728299985 ] } },
{ "type": "Feature", "properties": { "DIREKTION": "Nord", "WACH_TYP": "BF", "WACH_NAME": "FW Wittenau", "ORT": "Berlin", "PLZ": "13437", "ADRESSE": "Roedernallee 55", "BEZIRK": "Reinickendorf", "ORTSTEIL": "Reinickendorf", "QUELLE": "Berliner Feuerwehr", "STAND": "04\/19" }, "geometry": { "type": "Point", "coordinates": [ 13.340850829699985, 52.587342446799994 ] } },
{ "type": "Feature", "properties": { "DIREKTION": "Süd", "WACH_TYP": "RW", "WACH_NAME": "RW Lankwitz", "ORT": "Berlin", "PLZ": "12249", "ADRESSE": "Gallwitzallee 125", "BEZIRK": "Steglitz-Zehlendorf", "ORTSTEIL": "Lankwitz", "QUELLE": "Berliner Feuerwehr", "STAND": "04\/19" }, "geometry": { "type": "Point", "coordinates": [ 13.350625335899981, 52.424916783199869 ] } }
]
}
